Time,Analog_Airspeed,Analog_Altitude,SBG_PitchAngle_EU,SBG_RollAngle_EU,Nz_EU,Nx_EU,T72001_EU,T72002_EU,T27004_EU,T27002_EU,T27001_EU,SBG_YawAngle_EU
2019-06-03 15:39:47.260,143.0185,6970.0093,3.6316,0.7935,1.0037,0.1535,2340.0,2400.0,-0.5623,-1.8331,4.1558,-72.0481
2019-06-03 15:39:47.280,142.9527,6969.9551,3.6403,0.7604,1.0946,0.0312,2340.0,2400.0,-0.574,-1.8301,4.1333,-72.0411
2019-06-03 15:39:47.300,142.961,6969.873,3.6453,0.725,1.2026,0.004,2340.0,2400.0,-0.5711,-1.8122,4.1439,-72.0341
2019-06-03 15:39:47.320,142.9445,6969.873,3.6453,0.725,1.0181,0.1246,2340.0,2400.0,-0.5857,-1.8301,4.1465,-72.0341
2019-06-03 15:39:47.340,143.117,6969.8462,3.6453,0.725,1.213,0.0132,2340.0,2400.0,-0.5798,-1.8301,4.1373,-72.0341
2019-06-03 15:39:47.360,143.1334,6969.9004,3.6535,0.6919,1.0532,0.1307,2340.0,2400.0,-0.5857,-1.8331,4.1412,-72.0254
2019-06-03 15:39:47.380,143.0924,6969.873,3.6639,0.6626,1.0965,0.0219,2340.0,2400.0,-0.5652,-1.8331,4.1412,-72.0149
2019-06-03 15:39:47.400,143.0924,6969.8462,3.667,0.6503,1.2374,0.0273,2400.0,2340.0,-0.574,-1.8301,4.1386,-72.0114
2019-06-03 15:39:47.420,143.0924,6969.8188,3.6741,0.638,0.997,0.1195,2400.0,2340.0,-0.574,-1.8331,4.1478,-72.0061
2019-06-03 15:39:47.440,143.1334,6969.873,3.6741,0.638,1.1875,0.0326,2400.0,2340.0,-0.5681,-1.8331,4.1333,-72.0061
2019-06-03 15:39:47.460,143.1498,6969.8462,3.6741,0.638,1.0832,0.1403,2400.0,2340.0,-0.5594,-1.8271,4.1439,-72.0061
2019-06-03 15:39:47.480,143.0842,6969.7915,3.6838,0.6082,1.0273,-0.0026,2400.0,2340.0,-0.5681,-1.8331,4.1452,-71.9957
2019-06-03 15:39:47.500,143.0924,6969.7915,3.6892,0.5776,1.1209,-0.036,2400.0,2340.0,-0.5623,-1.8331,4.1478,-71.9869
2019-06-03 15:39:47.520,143.076,6969.7915,3.6892,0.5776,0.9541,0.1608,2400.0,2340.0,-0.5944,-1.8331,4.1452,-71.9869
2019-06-03 15:39:47.540,143.1334,6969.873,3.6892,0.5776,1.1072,-0.0174,2400.0,2340.0,-0.5769,-1.8271,4.1293,-71.9869
2019-06-03 15:39:47.560,143.1416,6969.9277,3.6983,0.5507,1.1305,0.1564,2400.0,2340.0,-0.5828,-1.8331,4.1359,-71.9764
2019-06-03 15:39:47.580,143.0924,6969.9819,3.6983,0.5507,1.0321,-0.0104,2400.0,2340.0,-0.5564,-1.8182,4.1439,-71.9764
2019-06-03 15:39:47.600,143.0842,6970.0093,3.7098,0.5111,1.0717,-0.0092,2400.0,2340.0,-0.5594,-1.8003,4.132,-71.9572
2019-06-03 15:39:47.620,143.0924,6970.0093,3.7211,0.5016,1.0969,0.1287,2400.0,2340.0,-0.5564,-1.7973,4.1412,-71.9537
2019-06-03 15:39:47.640,143.1416,6970.0908,3.7211,0.5016,1.1098,0.0047,2400.0,2340.0,-0.5564,-1.6957,4.1306,-71.9537
2019-06-03 15:39:47.660,143.1416,6970.1182,3.7211,0.5016,1.1191,0.1532,2400.0,2340.0,-0.5857,-1.6598,4.1333,-71.9537
2019-06-03 15:39:47.680,143.0924,6970.0908,3.7274,0.4792,0.929,-0.011,2400.0,2340.0,-0.5681,-1.567,4.1452,-71.9415
2019-06-03 15:39:47.700,143.1006,6969.9819,3.7341,0.4581,0.9781,-0.0053,2400.0,2340.0,-0.5857,-1.5221,4.1161,-71.931
2019-06-03 15:39:47.720,143.0842,6970.0093,3.7341,0.4581,1.1693,0.1453,2400.0,2340.0,-0.5828,-1.4981,4.1465,-71.931
2019-06-03 15:39:47.740,143.1416,6969.9277,3.7341,0.4581,0.8668,0.0092,2400.0,2340.0,-0.5886,-1.4171,4.1214,-71.931
2019-06-03 15:39:47.760,143.1416,6969.9551,3.7452,0.4439,1.1424,0.1384,2400.0,2340.0,-0.5623,-1.4351,4.1492,-71.9187
2019-06-03 15:39:47.780,143.0842,6969.9551,3.7452,0.4439,0.8735,0.0061,2400.0,2340.0,-0.5594,-1.4321,4.1306,-71.9187
2019-06-03 15:39:47.800,143.076,6969.9551,3.7573,0.426,0.9068,-0.026,2400.0,2340.0,-0.5564,-1.4351,4.1253,-71.889
2019-06-03 15:39:47.820,143.0924,6969.9277,3.7683,0.4281,1.3287,0.1395,2400.0,2340.0,-0.5828,-1.5161,4.1293,-71.882
2019-06-03 15:39:47.840,143.1334,6969.9551,3.7683,0.4281,0.7525,0.0479,2400.0,2340.0,-0.5711,-1.528,4.1359,-71.882
2019-06-03 15:39:47.860,143.1498,6969.9551,3.7683,0.4281,1.193,0.0988,2400.0,2340.0,-0.5798,-1.6269,4.1478,-71.882
2019-06-03 15:39:47.880,143.0924,6969.9551,3.7723,0.4236,0.7869,0.0511,2400.0,2340.0,-0.574,-1.7136,4.1412,-71.8698
2019-06-03 15:39:47.900,143.0924,6969.9277,3.7817,0.4231,0.8831,0.0446,2400.0,2340.0,-0.5623,-1.7286,4.1333,-71.8575
2019-06-03 15:39:47.920,143.0842,6969.9551,3.7817,0.4231,1.2895,0.1009,2400.0,2340.0,-0.5798,-1.7973,4.1399,-71.8575
2019-06-03 15:39:47.940,143.0349,6969.9551,3.7817,0.4231,0.7858,0.065,2400.0,2340.0,-0.5711,-1.8241,4.1386,-71.8575
2019-06-03 15:39:47.960,143.0021,6969.9819,3.7941,0.4257,1.3136,0.0915,2400.0,2340.0,-0.5711,-1.9047,4.1492,-71.8453
2019-06-03 15:39:47.980,142.9527,6969.9551,3.7941,0.4257,0.7551,0.0595,2400.0,2340.0,-0.574,-1.8987,4.1518,-71.8453
2019-06-03 15:39:48.000,142.9527,6969.9819,3.8072,0.4205,0.8672,0.0636,2400.0,2340.0,-0.5681,-1.8928,4.1412,-71.8068
2019-06-03 15:39:48.020,142.961,6969.9277,3.8138,0.4173,1.2374,0.0497,2400.0,2340.0,-0.5711,-1.8928,4.1465,-71.8016
2019-06-03 15:39:48.040,143.0103,6969.9004,3.8138,0.4173,0.8687,0.1345,2400.0,2340.0,-0.5681,-1.842,4.1306,-71.8016
2019-06-03 15:39:48.060,143.0021,6969.9277,3.8138,0.4173,1.3239,0.0018,2400.0,2340.0,-0.5828,-1.8361,4.1452,-71.8016
2019-06-03 15:39:48.080,142.9527,6969.9004,3.8169,0.4083,0.8813,0.1598,2400.0,2340.0,-0.5857,-1.7794,4.1373,-71.7911
2019-06-03 15:39:48.100,142.9692,6969.8188,3.8277,0.4028,0.9179,0.1271,2400.0,2340.0,-0.5769,-1.6957,4.1253,-71.7823
2019-06-03 15:39:48.120,142.9527,6969.8462,3.8277,0.4028,1.1723,-0.0076,2400.0,2340.0,-0.5798,-1.6957,4.1373,-71.7823
2019-06-03 15:39:48.140,143.0103,6969.8188,3.8277,0.4028,0.9552,0.1588,2400.0,2340.0,-0.5681,-1.582,4.1359,-71.7823
2019-06-03 15:39:48.160,143.0021,6969.8188,3.8391,0.3991,1.1246,-0.0185,2400.0,2340.0,-0.5623,-1.555,4.1425,-71.7753
2019-06-03 15:39:48.180,142.9527,6969.8462,3.8391,0.3991,0.9367,0.1223,2400.0,2340.0,-0.5652,-1.4891,4.1412,-71.7753
2019-06-03 15:39:48.200,142.9527,6969.9004,3.8499,0.3917,0.987,0.1232,2400.0,2340.0,-0.5681,-1.4501,4.1293,-71.7649
2019-06-03 15:39:48.220,142.9692,6969.873,3.8525,0.3917,1.139,0.0207,2400.0,2340.0,-0.5711,-1.4651,4.1425,-71.7614
2019-06-03 15:39:48.240,143.0021,6969.873,3.8525,0.3917,0.9508,0.0975,2400.0,2340.0,-0.5535,-1.4621,4.1452,-71.7614
2019-06-03 15:39:48.260,143.0103,6969.9004,3.8525,0.3917,1.078,0.0022,2400.0,2340.0,-0.5652,-1.4981,4.1359,-71.7614
2019-06-03 15:39:48.280,142.961,6969.873,3.8621,0.3975,1.0806,0.122,2400.0,2340.0,-0.5623,-1.555,4.1386,-71.7561
2019-06-03 15:39:48.300,142.961,6969.7915,3.8758,0.4098,1.0503,0.1424,2400.0,2340.0,-0.5769,-1.57,4.1293,-71.7509
2019-06-03 15:39:48.320,142.9527,6969.7642,3.8758,0.4098,1.1017,0.0067,2400.0,2340.0,-0.5711,-1.6897,4.1518,-71.7509
2019-06-03 15:39:48.340,143.0103,6969.7915,3.8758,0.4098,1.0961,0.1493,2400.0,2340.0,-0.5681,-1.7614,4.1412,-71.7509
2019-06-03 15:39:48.360,143.0021,6969.8462,3.8872,0.4189,0.9696,-0.0152,2400.0,2340.0,-0.5594,-1.8271,4.1518,-71.7474
2019-06-03 15:39:48.380,142.9527,6969.8462,3.8872,0.4189,1.0769,0.1483,2400.0,2340.0,-0.5623,-1.86,4.1439,-71.7474
2019-06-03 15:39:48.400,142.961,6969.9277,3.9022,0.4329,1.1187,0.1631,2400.0,2400.0,-0.5564,-1.857,4.1359,-71.7474
2019-06-03 15:39:48.420,142.9692,6969.8462,3.9051,0.4354,0.9205,0.0284,2400.0,2400.0,-0.5623,-1.9077,4.1505,-71.7456
2019-06-03 15:39:48.440,143.0021,6969.873,3.9051,0.4354,1.1368,0.1195,2400.0,2400.0,-0.5477,-1.86,4.1373,-71.7456
2019-06-03 15:39:48.460,143.0185,6969.873,3.9051,0.4354,0.9415,0.0156,2400.0,2400.0,-0.5506,-1.8391,4.1505,-71.7456
2019-06-03 15:39:48.480,142.9445,6969.9819,3.9175,0.4399,1.2411,0.0892,2400.0,2400.0,-0.5535,-1.8391,4.1478,-71.7474
2019-06-03 15:39:48.500,142.961,6969.9277,3.9308,0.4456,1.3003,0.1144,2400.0,2400.0,-0.5623,-1.7734,4.1333,-71.7474
2019-06-03 15:39:48.520,142.9527,6969.9004,3.9308,0.4456,0.9334,0.0391,2400.0,2400.0,-0.5711,-1.7674,4.1465,-71.7474
2019-06-03 15:39:48.540,143.1334,6969.9551,3.9308,0.4456,1.1963,0.1166,2400.0,2400.0,-0.5652,-1.6478,4.1373,-71.7474
2019-06-03 15:39:48.560,143.1334,6969.9551,3.9399,0.4438,0.8117,0.0439,2400.0,2400.0,-0.5623,-1.5999,4.1412,-71.7491
2019-06-03 15:39:48.580,143.0924,6969.9819,3.9399,0.4438,1.1875,0.097,2400.0,2400.0,-0.5448,-1.594,4.1505,-71.7491
2019-06-03 15:39:48.600,143.0842,6970.0366,3.9562,0.4502,1.2492,0.1188,2400.0,2400.0,-0.5594,-1.549,4.1134,-71.7491
2019-06-03 15:39:48.620,143.0924,6970.0366,3.9622,0.4522,0.835,0.0772,2400.0,2400.0,-0.5535,-1.537,4.1531,-71.7509
2019-06-03 15:39:48.640,143.1416,6970.0366,3.9622,0.4522,1.2145,0.0613,2400.0,2400.0,-0.574,-1.5191,4.1346,-71.7509
2019-06-03 15:39:48.660,143.1416,6970.0093,3.9622,0.4522,0.8206,0.096,2400.0,2400.0,-0.5798,-1.534,4.1412,-71.7509
2019-06-03 15:39:48.680,143.0924,6970.0908,3.9735,0.4574,1.2189,0.0601,2400.0,2400.0,-0.5769,-1.534,4.1412,-71.7544
2019-06-03 15:39:48.700,143.0924,6969.9819,3.9844,0.4643,1.2677,0.0805,2400.0,2400.0,-0.5564,-1.546,4.1333,-71.7596
2019-06-03 15:39:48.720,143.076,6969.9551,3.9844,0.4643,0.8923,0.0773,2400.0,2400.0,-0.5418,-1.6658,4.1492,-71.7596
2019-06-03 15:39:48.740,143.0185,6970.064,3.9844,0.4643,1.257,0.0593,2400.0,2400.0,-0.5301,-1.7047,4.1425,-71.7596
2019-06-03 15:39:48.760,143.0021,6970.064,3.9924,0.4703,0.8746,0.08,2400.0,2400.0,-0.5418,-1.8241,4.1439,-71.7649
2019-06-03 15:39:48.780,142.961,6970.064,4.0053,0.4733,1.1708,0.0429,2400.0,2400.0,-0.5594,-1.8719,4.1452,-71.7701
2019-06-03 15:39:48.800,142.9527,6970.064,4.0123,0.4789,1.1786,0.0541,2400.0,2400.0,-0.5594,-1.8689,4.1386,-71.7718
2019-06-03 15:39:48.820,142.9692,6969.9819,4.0189,0.48,0.9382,0.0954,2400.0,2400.0,-0.5594,-1.8868,4.1531,-71.7753
2019-06-03 15:39:48.840,143.0103,6969.8462,4.0189,0.48,1.0832,0.0393,2400.0,2400.0,-0.5448,-1.8898,4.1386,-71.7753
2019-06-03 15:39:48.860,143.0185,6969.8188,4.0189,0.48,0.9223,0.0947,2400.0,2400.0,-0.5184,-1.8331,4.1531,-71.7753
2019-06-03 15:39:48.880,142.9527,6969.873,4.029,0.4747,1.085,0.0256,2400.0,2400.0,-0.5623,-1.8182,4.1253,-71.7823
2019-06-03 15:39:48.900,142.9692,6969.7373,4.0389,0.4716,1.1287,0.0567,2400.0,2400.0,-0.5301,-1.7435,4.1439,-71.7876
2019-06-03 15:39:48.920,142.9527,6969.7642,4.0389,0.4716,0.9308,0.138,2400.0,2400.0,-0.5711,-1.6837,4.1478,-71.7876
2019-06-03 15:39:48.940,143.0103,6969.7373,4.0389,0.4716,1.0196,0.0317,2400.0,2400.0,-0.5652,-1.5969,4.1492,-71.7876
2019-06-03 15:39:48.960,143.0103,6969.71,4.0472,0.4621,0.9382,0.1066,2400.0,2400.0,-0.5769,-1.576,4.1386,-71.7928
2019-06-03 15:39:48.980,142.961,6969.7642,4.0472,0.4621,1.1531,0.0275,2400.0,2400.0,-0.6003,-1.561,4.1425,-71.7928
2019-06-03 15:39:49.000,142.9527,6969.8462,4.0678,0.4517,1.1971,0.0497,2400.0,2400.0,-0.5681,-1.5251,4.1425,-71.7823
2019-06-03 15:39:49.020,142.9527,6969.8462,4.0745,0.449,0.9933,0.0877,2400.0,2400.0,-0.5535,-1.54,4.1465,-71.7841
2019-06-03 15:39:49.040,143.0103,6969.873,4.0745,0.449,1.0743,0.0821,2400.0,2400.0,-0.5477,-1.543,4.1425,-71.7841
2019-06-03 15:39:49.060,143.0185,6969.8462,4.0745,0.449,1.0292,0.0704,2400.0,2400.0,-0.5448,-1.594,4.1359,-71.7841
2019-06-03 15:39:49.080,142.9692,6969.8188,4.0857,0.4451,1.0913,0.0265,2400.0,2400.0,-0.5652,-1.6718,4.1359,-71.7893
2019-06-03 15:39:49.100,142.961,6969.7373,4.0929,0.4379,1.1264,0.037,2400.0,2400.0,-0.5594,-1.7286,4.1439,-71.7928
2019-06-03 15:39:49.120,142.9527,6969.7915,4.0929,0.4379,1.0802,0.1175,2400.0,2400.0,-0.5711,-1.8092,4.1505,-71.7928
2019-06-03 15:39:49.140,143.0103,6969.8188,4.0929,0.4379,1.0181,0.028,2400.0,2400.0,-0.574,-1.8152,4.1452,-71.7928
2019-06-03 15:39:49.160,142.9939,6969.9004,4.1024,0.4301,1.0743,0.109,2400.0,2400.0,-0.5594,-1.8152,4.1439,-71.7981
2019-06-03 15:39:49.180,142.9527,6969.9277,4.1024,0.4301,1.0943,-0.0026,2400.0,2400.0,-0.574,-1.8301,4.1465,-71.7981
2019-06-03 15:39:49.200,142.961,6969.9819,4.116,0.4135,1.1649,0.0148,2400.0,2400.0,-0.5681,-1.8122,4.1505,-71.8033
2019-06-03 15:39:49.220,142.961,6969.9277,4.1237,0.4072,1.1113,0.1271,2400.0,2400.0,-0.5594,-1.8092,4.1584,-71.8051
2019-06-03 15:39:49.240,143.0103,6969.9277,4.1237,0.4072,0.9511,0.0311,2400.0,2400.0,-0.5535,-1.7047,4.1452,-71.8051
2019-06-03 15:39:49.260,143.0185,6969.9819,4.1237,0.4072,1.1113,0.093,2400.0,2400.0,-0.5594,-1.6299,4.1373,-71.8051
2019-06-03 15:39:49.280,142.9527,6970.0093,4.1306,0.3909,1.044,-0.0025,2400.0,2400.0,-0.5769,-1.588,4.1399,-71.8121
2019-06-03 15:39:49.300,142.961,6969.9277,4.1353,0.372,1.0858,0.0095,2400.0,2400.0,-0.5711,-1.534,4.1412,-71.8191
2019-06-03 15:39:49.320,142.9445,6969.9551,4.1353,0.372,1.1786,0.136,2400.0,2400.0,-0.5623,-1.5221,4.1492,-71.8191
2019-06-03 15:39:49.340,143.0103,6969.9277,4.1353,0.372,0.9674,0.0173,2400.0,2400.0,-0.5594,-1.4831,4.1333,-71.8191
2019-06-03 15:39:49.360,143.0103,6969.9551,4.1467,0.3572,1.0747,0.1031,2400.0,2400.0,-0.5506,-1.4771,4.1478,-71.826
2019-06-03 15:39:49.380,142.961,6969.9551,4.1467,0.3572,1.0399,0.0162,2400.0,2400.0,-0.5857,-1.5011,4.1373,-71.826
2019-06-03 15:39:49.400,142.9527,6969.9551,4.1602,0.3387,0.9249,0.0278,2340.0,2400.0,-0.574,-1.5101,4.1399,-71.8348
2019-06-03 15:39:49.420,142.961,6969.9277,4.1674,0.3372,1.0525,0.1309,2340.0,2400.0,-0.5681,-1.54,4.1425,-71.8365
2019-06-03 15:39:49.440,143.0103,6969.9819,4.1674,0.3372,0.9134,0.0213,2340.0,2400.0,-0.5477,-1.5999,4.1359,-71.8365
2019-06-03 15:39:49.460,143.0021,6969.9551,4.1674,0.3372,1.1475,0.115,2340.0,2400.0,-0.5506,-1.6747,4.1306,-71.8365
2019-06-03 15:39:49.480,142.9527,6969.9551,4.1748,0.3296,0.9101,0.0393,2340.0,2400.0,-0.5448,-1.7734,4.1478,-71.8418
2019-06-03 15:39:49.500,142.9692,6969.873,4.1856,0.324,0.9038,0.0261,2340.0,2400.0,-0.5564,-1.7853,4.1346,-71.8453
2019-06-03 15:39:49.520,142.961,6969.8462,4.1856,0.324,1.1431,0.1106,2340.0,2400.0,-0.5711,-1.8122,4.1425,-71.8453
2019-06-03 15:39:49.540,142.8869,6969.8462,4.1856,0.324,0.9293,0.0207,2340.0,2400.0,-0.5798,-1.8122,4.1399,-71.8453
2019-06-03 15:39:49.560,142.8787,6969.9277,4.2013,0.3168,1.1449,0.1032,2340.0,2400.0,-0.5711,-1.7674,4.1386,-71.847
2019-06-03 15:39:49.580,142.8293,6969.9551,4.2013,0.3168,0.8261,0.0337,2340.0,2400.0,-0.5681,-1.7943,4.1465,-71.847
2019-06-03 15:39:49.600,142.8293,6969.9551,4.2187,0.3039,0.8457,0.0309,2340.0,2400.0,-0.5389,-1.7555,4.1386,-71.8505
2019-06-03 15:39:49.620,142.8293,6969.9551,4.2259,0.3006,1.206,0.0863,2340.0,2400.0,-0.5301,-1.7495,4.1452,-71.8523
2019-06-03 15:39:49.640,142.8787,6969.9277,4.2259,0.3006,0.9815,0.0682,2340.0,2400.0,-0.5389,-1.6388,4.1412,-71.8523
2019-06-03 15:39:49.660,142.8952,6969.9004,4.2259,0.3006,1.1912,0.0588,2340.0,2400.0,-0.5448,-1.555,4.1439,-71.8523
2019-06-03 15:39:49.680,142.821,6969.873,4.2356,0.2864,0.8805,0.0982,2340.0,2400.0,-0.5944,-1.558,4.1412,-71.854
2019-06-03 15:39:49.700,142.8375,6969.8462,4.2496,0.2766,0.821,0.0589,2340.0,2400.0,-0.5798,-1.4951,4.1439,-71.854
2019-06-03 15:39:49.720,142.8293,6969.8462,4.2496,0.2766,1.1975,0.0281,2340.0,2400.0,-0.5711,-1.4711,4.1412,-71.854
2019-06-03 15:39:49.740,142.8705,6969.873,4.2496,0.2766,0.9615,0.0837,2340.0,2400.0,-0.5594,-1.4861,4.1478,-71.854
2019-06-03 15:39:49.760,142.8869,6969.9004,4.2627,0.2692,1.2145,0.0401,2340.0,2400.0,-0.5448,-1.4891,4.1333,-71.8523
2019-06-03 15:39:49.780,142.8293,6969.873,4.2627,0.2692,0.95,0.1516,2340.0,2400.0,-0.5448,-1.5071,4.1373,-71.8523
2019-06-03 15:39:49.800,142.8375,6969.873,4.2746,0.2548,0.875,0.1026,2340.0,2400.0,-0.5389,-1.5071,4.1333,-71.8523
2019-06-03 15:39:49.820,142.8375,6969.8462,4.2771,0.253,1.2699,0.0167,2340.0,2400.0,-0.5477,-1.561,4.1412,-71.8488
2019-06-03 15:39:49.840,142.8869,6969.9551,4.2771,0.253,0.8565,0.0968,2340.0,2400.0,-0.5681,-1.6149,4.1439,-71.8488
2019-06-03 15:39:49.860,142.8869,6969.9551,4.2771,0.253,1.2711,0.0122,2340.0,2400.0,-0.5711,-1.6329,4.1452,-71.8488
2019-06-03 15:39:49.880,142.821,6969.9819,4.288,0.25,1.058,0.1451,2340.0,2400.0,-0.5711,-1.7345,4.1439,-71.847
2019-06-03 15:39:49.900,142.8375,6969.9819,4.3013,0.2454,0.9415,0.148,2340.0,2400.0,-0.5535,-1.7405,4.1373,-71.8418
2019-06-03 15:39:49.920,142.8293,6969.9819,4.3013,0.2454,1.2015,-0.0344,2340.0,2400.0,-0.5477,-1.7614,4.1425,-71.8418
2019-06-03 15:39:49.940,142.7551,6969.9551,4.3013,0.2454,0.9134,0.1395,2340.0,2400.0,-0.5535,-1.7823,4.1465,-71.8418
2019-06-03 15:39:49.960,142.7468,6970.0908,4.312,0.2358,1.1823,-0.0172,2340.0,2400.0,-0.5477,-1.7196,4.1399,-71.8383
2019-06-03 15:39:49.980,142.6973,6970.1729,4.312,0.2358,1.0839,0.1832,2340.0,2400.0,-0.5652,-1.7674,4.1425,-71.8383
2019-06-03 15:39:50.000,142.6973,6970.1729,4.3231,0.2251,1.0421,0.1601,2340.0,2400.0,-0.5594,-1.7226,4.1333,-71.8173
2019-06-03 15:39:50.020,142.7056,6970.1729,4.3226,0.2168,1.1098,-0.0216,2340.0,2400.0,-0.5535,-1.6718,4.1373,-71.8156
2019-06-03 15:39:50.040,142.7551,6970.1729,4.3226,0.2168,1.0773,0.1567,2340.0,2400.0,-0.5535,-1.6508,4.1478,-71.8156
2019-06-03 15:39:50.060,142.7633,6970.0366,4.3226,0.2168,1.0521,-0.0124,2340.0,2400.0,-0.5448,-1.573,4.1373,-71.8156
2019-06-03 15:39:50.080,142.7056,6969.9551,4.3321,0.2093,1.1213,0.1682,2340.0,2400.0,-0.5623,-1.594,4.1531,-71.8103
2019-06-03 15:39:50.100,142.7138,6969.8462,4.3437,0.1998,1.0262,0.1524,2340.0,2400.0,-0.574,-1.582,4.1412,-71.8051
2019-06-03 15:39:50.120,142.689,6969.873,4.3437,0.1998,0.9508,0.0038,2340.0,2400.0,-0.5711,-1.546,4.1505,-71.8051
2019-06-03 15:39:50.140,142.7468,6969.8462,4.3437,0.1998,1.1753,0.1458,2340.0,2400.0,-0.5623,-1.57,4.1531,-71.8051
2019-06-03 15:39:50.160,142.7386,6969.873,4.3511,0.1923,0.9478,0.0055,2340.0,2400.0,-0.5418,-1.567,4.1386,-71.7998
2019-06-03 15:39:50.180,142.7056,6969.9277,4.3556,0.1861,1.2097,0.1608,2340.0,2400.0,-0.5418,-1.5999,4.1465,-71.7893
2019-06-03 15:39:50.200,142.6973,6969.9004,4.3667,0.1856,1.0732,0.1229,2340.0,2400.0,-0.5506,-1.5969,4.1386,-71.7858
2019-06-03 15:39:50.220,142.7056,6969.873,4.3678,0.1803,0.848,0.0212,2340.0,2400.0,-0.5448,-1.6089,4.1505,-71.7823
2019-06-03 15:39:50.240,142.7468,6969.9277,4.3678,0.1803,1.1775,0.0979,2340.0,2400.0,-0.5652,-1.6359,4.1492,-71.7823
2019-06-03 15:39:50.260,142.7551,6969.9551,4.3678,0.1803,0.872,0.0436,2340.0,2400.0,-0.5681,-1.6359,4.1425,-71.7823
2019-06-03 15:39:50.280,142.6973,6970.0093,4.3809,0.1801,1.2289,0.1289,2340.0,2400.0,-0.5798,-1.6418,4.1412,-71.7753
2019-06-03 15:39:50.300,142.6973,6970.0093,4.3909,0.1761,1.1878,0.0973,2340.0,2400.0,-0.5594,-1.6388,4.1492,-71.7666
2019-06-03 15:39:50.320,142.6973,6970.8262,4.3909,0.1761,0.9338,0.0471,2340.0,2400.0,-0.5623,-1.6418,4.1346,-71.7666
2019-06-03 15:39:50.340,142.7551,6972.0239,4.3909,0.1761,1.2026,0.0791,2340.0,2400.0,-0.5594,-1.6478,4.1386,-71.7666
2019-06-03 15:39:50.360,142.7468,6972.8677,4.3984,0.1705,0.8165,0.0911,2340.0,2400.0,-0.5623,-1.6388,4.1386,-71.7596
2019-06-03 15:39:50.380,142.6973,6974.2017,4.3984,0.1705,1.3017,0.0805,2340.0,2400.0,-0.5564,-1.6568,4.1425,-71.7596
2019-06-03 15:39:50.400,142.6973,6975.0996,4.4133,0.1679,1.3302,0.0611,2400.0,2400.0,-0.5623,-1.6299,4.1386,-71.7526
2019-06-03 15:39:50.420,142.6973,6975.9438,4.418,0.1665,0.7888,0.0694,2400.0,2400.0,-0.5448,-1.6359,4.1412,-71.7474
2019-06-03 15:39:50.440,142.7468,6977.1958,4.418,0.1665,1.2433,0.0326,2400.0,2400.0,-0.5477,-1.6568,4.1465,-71.7474
2019-06-03 15:39:50.460,142.7551,6978.0669,4.418,0.1665,0.9053,0.1306,2400.0,2400.0,-0.5623,-1.6448,4.128,-71.7474
2019-06-03 15:39:50.480,142.6973,6978.3662,4.4298,0.1675,1.21,0.0164,2400.0,2400.0,-0.5506,-1.6508,4.1571,-71.7386
2019-06-03 15:39:50.500,142.7056,6978.3394,4.4365,0.1685,1.2041,0.0328,2400.0,2400.0,-0.574,-1.6478,4.1386,-71.7299
2019-06-03 15:39:50.520,142.689,6978.3394,4.4365,0.1685,0.9371,0.1131,2400.0,2400.0,-0.5623,-1.6478,4.1465,-71.7299
2019-06-03 15:39:50.540,142.6229,6978.3662,4.4365,0.1685,1.1912,0.0051,2400.0,2400.0,-0.5681,-1.6777,4.1293,-71.7299
2019-06-03 15:39:50.560,142.6147,6978.4209,4.4443,0.1676,0.9364,0.1335,2400.0,2400.0,-0.5389,-1.6628,4.1399,-71.7211
2019-06-03 15:39:50.580,142.565,6978.4482,4.4443,0.1676,1.1568,-0.0225,2400.0,2400.0,-0.5594,-1.6568,4.1452,-71.7211
2019-06-03 15:39:50.600,142.565,6978.5298,4.4605,0.1728,1.1675,-0.028,2400.0,2400.0,-0.5506,-1.6538,4.1492,-71.7124
2019-06-03 15:39:50.620,142.5816,6978.4209,4.4697,0.1754,0.9415,0.1911,2400.0,2400.0,-0.5623,-1.6448,4.1373,-71.7072
2019-06-03 15:39:50.640,142.6229,6978.3936,4.4697,0.1754,1.0044,-0.0545,2400.0,2400.0,-0.5828,-1.6448,4.1465,-71.7072
2019-06-03 15:39:50.660,142.6229,6978.3936,4.4697,0.1754,1.0972,0.2002,2400.0,2400.0,-0.5769,-1.6448,4.1399,-71.7072
2019-06-03 15:39:50.680,142.565,6978.4482,4.4794,0.1783,1.0506,-0.0387,2400.0,2400.0,-0.5915,-1.6628,4.1439,-71.6967
2019-06-03 15:39:50.700,142.5733,6978.3936,4.4872,0.1762,0.8642,-0.0405,2400.0,2400.0,-0.5828,-1.6628,4.1439,-71.6862
2019-06-03 15:39:50.720,142.5568,6978.3662,4.4872,0.1762,1.1427,0.1732,2400.0,2400.0,-0.5798,-1.6508,4.1412,-71.6862
2019-06-03 15:39:50.740,142.6312,6978.3394,4.4872,0.1762,0.9981,0.0031,2400.0,2400.0,-0.5798,-1.6538,4.1452,-71.6862
2019-06-03 15:39:50.760,142.6229,6978.2573,4.4999,0.1775,1.1457,0.1399,2400.0,2400.0,-0.5769,-1.6538,4.132,-71.6774
2019-06-03 15:39:50.780,142.5733,6978.312,4.4999,0.1775,0.9193,0.0268,2400.0,2400.0,-0.5711,-1.6568,4.1518,-71.6774
2019-06-03 15:39:50.800,142.565,6978.3394,4.5147,0.1774,0.8679,0.0226,2400.0,2400.0,-0.5681,-1.6568,4.1492,-71.6547
2019-06-03 15:39:50.820,142.5733,6978.3394,4.5228,0.1814,1.2677,0.1217,2400.0,2400.0,-0.5564,-1.6598,4.1412,-71.6495
2019-06-03 15:39:50.840,142.6147,6978.4209,4.5228,0.1814,0.7954,0.0512,2400.0,2400.0,-0.5711,-1.6598,4.1412,-71.6495
2019-06-03 15:39:50.860,142.6229,6978.4209,4.5228,0.1814,1.2045,0.1055,2400.0,2400.0,-0.5681,-1.6568,4.1373,-71.6495
2019-06-03 15:39:50.880,142.5733,6978.4209,4.5286,0.1809,0.8036,0.0373,2400.0,2400.0,-0.5857,-1.6598,4.1505,-71.6425
2019-06-03 15:39:50.900,142.5733,6978.3662,4.5404,0.1798,0.7596,0.0448,2400.0,2400.0,-0.5886,-1.6598,4.1478,-71.6355
2019-06-03 15:39:50.920,142.565,6978.3936,4.5404,0.1798,1.3709,0.1053,2400.0,2400.0,-0.5769,-1.6568,4.1386,-71.6355
2019-06-03 15:39:50.940,142.4905,6978.4209,4.5404,0.1798,0.8772,0.082,2400.0,2400.0,-0.574,-1.6568,4.1492,-71.6355
2019-06-03 15:39:50.960,142.4905,6978.4482,4.554,0.188,1.2951,0.0759,2400.0,2400.0,-0.5798,-1.6359,4.1399,-71.625
2019-06-03 15:39:50.980,142.4325,6978.5024,4.554,0.188,0.8317,0.0995,2400.0,2400.0,-0.5915,-1.6688,4.1531,-71.625
2019-06-03 15:39:51.000,142.4242,6978.5024,4.5687,0.1912,0.7999,0.0852,2400.0,2400.0,-0.6032,-1.6628,4.1373,-71.6057
2019-06-03 15:39:51.020,142.4408,6978.4482,4.5746,0.1949,1.2422,0.0446,2400.0,2400.0,-0.5886,-1.6568,4.1412,-71.6022
2019-06-03 15:39:51.040,142.4905,6978.4209,4.5746,0.1949,0.8979,0.1319,2400.0,2400.0,-0.6032,-1.6598,4.1359,-71.6022
2019-06-03 15:39:51.060,142.4988,6978.3662,4.5746,0.1949,1.1771,0.0028,2400.0,2400.0,-0.6003,-1.6628,4.1492,-71.6022
2019-06-03 15:39:51.080,142.4325,6978.4209,4.5819,0.1967,0.8938,0.1483,2400.0,2400.0,-0.6266,-1.6747,4.1571,-71.597
2019-06-03 15:39:51.100,142.4408,6978.3936,4.5955,0.2035,0.9212,0.1418,2400.0,2400.0,-0.6324,-1.6777,4.1465,-71.5935
2019-06-03 15:39:51.120,142.4325,6978.4482,4.5955,0.2035,1.2111,0.0189,2400.0,2400.0,-0.612,-1.6388,4.132,-71.5935
2019-06-03 15:39:51.140,142.4823,6978.4482,4.5955,0.2035,0.8949,0.171,2400.0,2400.0,-0.6295,-1.6538,4.1386,-71.5935
2019-06-03 15:39:51.160,142.4905,6978.4209,4.6081,0.2132,1.1871,-0.0353,2400.0,2400.0,-0.6208,-1.6568,4.1386,-71.5882
2019-06-03 15:39:51.180,142.4325,6978.3662,4.6081,0.2132,1.0451,0.1746,2400.0,2400.0,-0.6266,-1.6927,4.1505,-71.5882
2019-06-03 15:39:51.200,142.4325,6978.3936,4.6221,0.2176,1.044,0.1437,2400.0,2400.0,-0.6441,-1.7525,4.1306,-71.59
2019-06-03 15:39:51.220,142.4491,6978.4209,4.6248,0.2188,1.0636,-0.0199,2400.0,2400.0,-0.6412,-1.8003,4.1359,-71.59
2019-06-03 15:39:51.240,142.4823,6978.5298,4.6248,0.2188,1.0432,0.1756,2400.0,2400.0,-0.6558,-1.8957,4.1465,-71.59
2019-06-03 15:39:51.260,142.4823,6978.4751,4.6248,0.2188,0.9726,-0.0316,2400.0,2400.0,-0.6558,-1.8957,4.1359,-71.59
2019-06-03 15:39:51.280,142.4325,6978.5298,4.6387,0.2181,1.2703,0.1503,2400.0,2400.0,-0.6412,-1.9315,4.1478,-71.5882
2019-06-03 15:39:51.300,142.4408,6978.4751,4.6537,0.2197,1.2326,0.1577,2400.0,2400.0,-0.6529,-1.9345,4.1346,-71.5865
2019-06-03 15:39:51.320,142.4408,6978.4482,4.6537,0.2197,0.9811,0.0233,2400.0,2400.0,-0.6412,-1.9315,4.1399,-71.5865
2019-06-03 15:39:51.340,142.3661,6978.5024,4.6537,0.2197,1.1623,0.164,2400.0,2400.0,-0.6646,-1.9405,4.1478,-71.5865
2019-06-03 15:39:51.360,142.3745,6978.5024,4.6643,0.2105,0.7895,-0.0049,2400.0,2400.0,-0.6529,-1.9017,4.1452,-71.5882
2019-06-03 15:39:51.380,142.308,6978.5024,4.6643,0.2105,1.3646,0.0913,2400.0,2400.0,-0.6412,-1.9643,4.1584,-71.5882
2019-06-03 15:39:51.400,142.3163,6978.4751,4.6794,0.1906,1.1775,0.1156,2400.0,2400.0,-0.6558,-1.9613,4.1359,-71.583
2019-06-03 15:39:51.420,142.3163,6978.4482,4.6811,0.1822,0.9212,0.0336,2400.0,2400.0,-0.6383,-1.8987,4.1386,-71.5848
2019-06-03 15:39:51.440,142.3745,6978.312,4.6811,0.1822,1.3561,0.1352,2400.0,2400.0,-0.6558,-1.9792,4.1492,-71.5848
2019-06-03 15:39:51.460,142.3745,6978.2847,4.6811,0.1822,0.7337,0.0746,2400.0,2400.0,-0.6529,-1.8957,4.1478,-71.5848
2019-06-03 15:39:51.480,142.308,6978.2573,4.6949,0.1704,1.3147,0.0417,2400.0,2400.0,-0.6617,-1.9166,4.1571,-71.5865
2019-06-03 15:39:51.500,142.3163,6978.2031,4.7052,0.1521,1.2211,0.0601,2400.0,2400.0,-0.6704,-1.9405,4.1452,-71.59
2019-06-03 15:39:51.520,142.2997,6978.2305,4.7052,0.1521,0.8642,0.1021,2400.0,2400.0,-0.65,-1.9107,4.1359,-71.59
2019-06-03 15:39:51.540,142.3578,6978.2847,4.7052,0.1521,1.2844,0.0867,2400.0,2400.0,-0.6617,-1.9583,4.1545,-71.59
2019-06-03 15:39:51.560,142.3661,6978.312,4.7103,0.1305,0.7718,0.078,2400.0,2400.0,-0.6646,-1.9166,4.1478,-71.5935
2019-06-03 15:39:51.580,142.3246,6978.2847,4.7182,0.111,1.2814,0.0242,2400.0,2400.0,-0.6675,-1.9226,4.1571,-71.5987
2019-06-03 15:39:51.600,142.308,6978.312,4.7274,0.1022,1.1745,0.0517,2400.0,2400.0,-0.6851,-1.9226,4.1425,-71.6005
2019-06-03 15:39:51.620,142.3163,6978.3662,4.7318,0.0947,0.8938,0.1199,2400.0,2400.0,-0.6646,-1.8749,4.1452,-71.6022
2019-06-03 15:39:51.640,142.3661,6978.3936,4.7318,0.0947,1.1978,0.0235,2400.0,2400.0,-0.6821,-1.8957,4.1492,-71.6022
2019-06-03 15:39:51.660,142.3661,6978.4209,4.7318,0.0947,0.8313,0.1482,2400.0,2400.0,-0.6675,-1.8808,4.1505,-71.6022
2019-06-03 15:39:51.680,142.308,6978.4751,4.7432,0.0712,1.1742,-0.0491,2400.0,2400.0,-0.6821,-1.8808,4.1425,-71.6075
2019-06-03 15:39:51.700,142.308,6978.4482,4.7503,0.0472,1.0921,-0.0226,2400.0,2400.0,-0.688,-1.8868,4.1412,-71.6127
2019-06-03 15:39:51.720,142.3163,6978.4482,4.7503,0.0472,0.9937,0.1558,2400.0,2400.0,-0.6909,-1.854,4.1399,-71.6127
2019-06-03 15:39:51.740,142.2332,6978.4209,4.7503,0.0472,1.0654,-0.0225,2400.0,2400.0,-0.6851,-1.8629,4.1478,-71.6127
2019-06-03 15:39:51.760,142.2415,6978.5298,4.7594,0.0224,1.0355,0.1537,2400.0,2400.0,-0.6821,-1.8301,4.1492,-71.618
2019-06-03 15:39:51.780,142.1749,6978.4751,4.7594,0.0224,1.0366,-0.0402,2400.0,2400.0,-0.688,-1.851,4.1399,-71.618
2019-06-03 15:39:51.800,142.1833,6978.5298,4.7748,-0.0155,0.9086,-0.0292,2400.0,2400.0,-0.6909,-1.8659,4.1386,-71.6197
2019-06-03 15:39:51.820,142.1833,6978.6113,4.7833,-0.0257,1.1553,0.1393,2400.0,2400.0,-0.6646,-1.8331,4.1346,-71.6232
2019-06-03 15:39:51.840,142.2332,6978.584,4.7833,-0.0257,0.9108,-0.0052,2400.0,2400.0,-0.6324,-1.86,4.1651,-71.6232
2019-06-03 15:39:51.860,142.2332,6978.5298,4.7833,-0.0257,1.2178,0.1494,2400.0,2400.0,-0.6383,-1.851,4.1425,-71.6232
2019-06-03 15:39:51.880,142.1749,6978.5024,4.7926,-0.0569,0.8409,-0.0338,2400.0,2400.0,-0.6237,-1.8152,4.1425,-71.6302
2019-06-03 15:39:51.900,142.1999,6978.4482,4.8017,-0.0862,0.8469,0.0427,2400.0,2400.0,-0.6441,-1.8361,4.1267,-71.6372
2019-06-03 15:39:51.920,142.1749,6978.4209,4.8017,-0.0862,1.2699,0.1073,2400.0,2400.0,-0.6032,-1.8361,4.1452,-71.6372
2019-06-03 15:39:51.940,142.2332,6978.4209,4.8017,-0.0862,0.7378,0.0462,2400.0,2400.0,-0.5974,-1.8361,4.1518,-71.6372
2019-06-03 15:39:51.960,142.2166,6978.4751,4.8142,-0.1132,1.2688,0.0869,2400.0,2400.0,-0.6003,-1.8361,4.1373,-71.6442
2019-06-03 15:39:51.980,142.1749,6978.4209,4.8142,-0.1132,0.8347,0.0579,2400.0,2400.0,-0.5828,-1.8301,4.1425,-71.6442
2019-06-03 15:39:52.000,142.1833,6978.3936,4.826,-0.1644,0.838,0.0861,2400.0,2400.0,-0.5944,-1.8361,4.1386,-71.632
2019-06-03 15:39:52.020,142.1833,6978.3662,4.8302,-0.1802,1.3103,0.0713,2400.0,2400.0,-0.5857,-1.8271,4.1412,-71.6337
2019-06-03 15:39:52.040,142.2415,6978.3394,4.8302,-0.1802,0.7082,0.113,2400.0,2400.0,-0.6061,-1.8331,4.1478,-71.6337
2019-06-03 15:39:52.060,142.2415,6978.312,4.8302,-0.1802,1.2533,0.054,2400.0,2400.0,-0.5974,-1.8301,4.132,-71.6337
2019-06-03 15:39:52.080,142.1749,6978.4209,4.8371,-0.2143,0.8254,0.1061,2400.0,2400.0,-0.5915,-1.8182,4.1386,-71.639
2019-06-03 15:39:52.100,142.1833,6978.3936,4.8469,-0.2455,0.8457,0.1023,2400.0,2400.0,-0.6003,-1.854,4.1452,-71.6442
2019-06-03 15:39:52.120,142.1666,6978.3936,4.8469,-0.2455,1.2049,0.0242,2400.0,2400.0,-0.5915,-1.8241,4.1425,-71.6442
2019-06-03 15:39:52.140,142.1166,6978.3936,4.8469,-0.2455,0.8979,0.142,2400.0,2400.0,-0.5944,-1.8331,4.1452,-71.6442
2019-06-03 15:39:52.160,142.1083,6978.4209,4.8568,-0.2743,1.1039,0.0066,2400.0,2400.0,-0.6061,-1.8301,4.1373,-71.6495
2019-06-03 15:39:52.180,142.0499,6978.4209,4.8568,-0.2743,0.9789,0.1447,2400.0,2400.0,-0.6237,-1.8271,4.1333,-71.6495
2019-06-03 15:39:52.200,142.0583,6978.4482,4.8674,-0.3238,0.9567,0.1537,2400.0,2400.0,-0.6383,-1.845,4.1465,-71.6355
2019-06-03 15:39:52.220,142.0499,6978.4482,4.8667,-0.3415,1.1117,0.021,2400.0,2400.0,-0.6383,-1.842,4.1399,-71.6372
2019-06-03 15:39:52.240,142.0916,6978.4482,4.8667,-0.3415,1.0558,0.1018,2400.0,2400.0,-0.6441,-1.8391,4.1531,-71.6372
2019-06-03 15:39:52.260,142.1083,6978.3936,4.8667,-0.3415,0.9397,0.0216,2400.0,2400.0,-0.6587,-1.8361,4.1492,-71.6372
2019-06-03 15:39:52.280,142.0583,6978.3662,4.8753,-0.3707,1.0059,0.1396,2400.0,2400.0,-0.6587,-1.8331,4.1359,-71.639
2019-06-03 15:39:52.300,142.0666,6978.2573,4.8854,-0.396,1.0155,0.1826,2400.0,2400.0,-0.6646,-1.8331,4.1399,-71.639
2019-06-03 15:39:52.320,142.0499,6978.2573,4.8854,-0.396,1.0525,-0.0098,2400.0,2400.0,-0.65,-1.8331,4.1399,-71.639
2019-06-03 15:39:52.340,142.1083,6978.312,4.8854,-0.396,1.1446,0.1302,2400.0,2400.0,-0.6558,-1.8361,4.1598,-71.639
2019-06-03 15:39:52.360,142.0916,6978.3662,4.8906,-0.4236,0.9574,0.0015,2400.0,2400.0,-0.6763,-1.8361,4.1333,-71.6372
2019-06-03 15:39:52.380,142.0583,6978.4209,4.8906,-0.4236,1.1191,0.1751,2400.0,2400.0,-0.6675,-1.8331,4.1425,-71.6372
2019-06-03 15:39:52.400,142.0499,6978.4209,4.8977,-0.4691,1.0924,0.2049,2340.0,2340.0,-0.6851,-1.8301,4.1439,-71.6285
2019-06-03 15:39:52.420,142.0583,6978.3662,4.894,-0.4897,0.9793,-0.0004,2340.0,2340.0,-0.6792,-1.8092,4.1386,-71.6302
2019-06-03 15:39:52.440,142.1,6978.3936,4.894,-0.4897,1.2215,0.1062,2340.0,2340.0,-0.7172,-1.8391,4.1425,-71.6302
2019-06-03 15:39:52.460,142.1166,6978.3936,4.894,-0.4897,0.9715,0.0218,2340.0,2340.0,-0.7201,-1.8301,4.1425,-71.6302
2019-06-03 15:39:52.480,142.0583,6978.4209,4.9012,-0.5185,1.1379,0.1314,2340.0,2340.0,-0.7289,-1.8212,4.1399,-71.6267
2019-06-03 15:39:52.500,142.0583,6978.3662,4.9072,-0.5477,1.2226,0.143,2340.0,2340.0,-0.7289,-1.8391,4.1518,-71.625
2019-06-03 15:39:52.520,142.0499,6978.3394,4.9072,-0.5477,0.8043,0.0214,2340.0,2340.0,-0.726,-1.8152,4.132,-71.625
2019-06-03 15:39:52.540,141.9748,6978.312,4.9072,-0.5477,1.1853,0.082,2340.0,2340.0,-0.7231,-1.8182,4.1439,-71.625
2019-06-03 15:39:52.560,141.9748,6978.4209,4.9095,-0.5762,0.8254,0.0537,2340.0,2340.0,-0.7289,-1.8212,4.1346,-71.6232
2019-06-03 15:39:52.580,141.9163,6978.3936,4.9095,-0.5762,1.2122,0.1159,2340.0,2340.0,-0.726,-1.8152,4.1425,-71.6232
2019-06-03 15:39:52.600,141.9247,6978.3662,4.9199,-0.6236,1.2396,0.1032,2340.0,2340.0,-0.7289,-1.8361,4.1518,-71.6162
2019-06-03 15:39:52.620,141.9163,6978.3662,4.9206,-0.6399,0.8376,0.0488,2340.0,2340.0,-0.726,-1.7943,4.1373,-71.6162
2019-06-03 15:39:52.640,141.9748,6978.3936,4.9206,-0.6399,1.183,0.0448,2340.0,2340.0,-0.726,-1.8182,4.1518,-71.6162
2019-06-03 15:39:52.660,141.9748,6978.3394,4.9206,-0.6399,0.9297,0.0822,2340.0,2340.0,-0.726,-1.8271,4.1465,-71.6162
2019-06-03 15:39:52.680,141.9079,6978.3394,4.9251,-0.6678,1.1468,0.0646,2340.0,2340.0,-0.726,-1.8182,4.1386,-71.6162
2019-06-03 15:39:52.700,141.933,6978.3394,4.9305,-0.6954,1.1442,0.0637,2340.0,2340.0,-0.7201,-1.8212,4.1439,-71.6145
2019-06-03 15:39:52.720,141.9247,6979.1563,4.9305,-0.6954,0.8428,0.1134,2340.0,2340.0,-0.6734,-1.8212,4.1425,-71.6145
2019-06-03 15:39:52.740,141.9748,6980.4629,4.9305,-0.6954,1.1779,-0.0046,2340.0,2340.0,-0.6587,-1.8212,4.1399,-71.6145
2019-06-03 15:39:52.760,141.9664,6981.416,4.9313,-0.7222,0.943,0.1076,2340.0,2340.0,-0.6529,-1.8331,4.1373,-71.6145
2019-06-03 15:39:52.780,141.933,6982.7227,4.9313,-0.7222,1.1594,0.033,2340.0,2340.0,-0.6354,-1.8241,4.1373,-71.6145
2019-06-03 15:39:52.800,141.9163,6983.6216,4.9402,-0.7575,1.1087,0.0473,2340.0,2340.0,-0.6412,-1.8271,4.1505,-71.6057
2019-06-03 15:39:52.820,141.933,6984.4927,4.9421,-0.7694,0.9393,0.1208,2340.0,2340.0,-0.6441,-1.8122,4.1333,-71.6057
2019-06-03 15:39:52.840,141.9832,6985.8267,4.9421,-0.7694,1.1668,0.0092,2340.0,2340.0,-0.6412,-1.8062,4.1425,-71.6057
2019-06-03 15:39:52.860,141.9748,6986.6982,4.9421,-0.7694,1.0525,0.1217,2340.0,2340.0,-0.6471,-1.8182,4.1412,-71.6057
2019-06-03 15:39:52.880,141.9163,6987.0791,4.9472,-0.7907,1.1191,0.0248,2340.0,2340.0,-0.6324,-1.8062,4.1452,-71.6057
2019-06-03 15:39:52.900,141.9247,6987.0249,4.9499,-0.8136,0.9367,0.0419,2340.0,2340.0,-0.6441,-1.8182,4.1465,-71.604
2019-06-03 15:39:52.920,141.9079,6987.0522,4.9499,-0.8136,1.1268,0.1271,2340.0,2340.0,-0.6383,-1.8152,4.1359,-71.604
2019-06-03 15:39:52.940,141.8494,6987.0522,4.9499,-0.8136,0.9671,0.0207,2340.0,2340.0,-0.6412,-1.8122,4.1373,-71.604
2019-06-03 15:39:52.960,141.841,6987.0791,4.9568,-0.8362,1.0602,0.1352,2340.0,2340.0,-0.6471,-1.8212,4.1478,-71.6022
2019-06-03 15:39:52.980,141.7908,6987.1064,4.9649,-0.8574,0.9452,0.0128,2340.0,2340.0,-0.6441,-1.8122,4.1386,-71.5673
2019-06-03 15:39:53.000,141.7991,6987.1064,4.965,-0.8725,0.8317,0.033,2340.0,2340.0,-0.6412,-1.8032,4.1425,-71.5673
2019-06-03 15:39:53.020,141.7991,6987.0791,4.9712,-0.8816,1.1387,0.1405,2340.0,2340.0,-0.6237,-1.8062,4.132,-71.5655
2019-06-03 15:39:53.040,141.8494,6987.0791,4.9712,-0.8816,0.9722,0.0237,2340.0,2340.0,-0.6061,-1.8032,4.1359,-71.5655
2019-06-03 15:39:53.060,141.8494,6987.0791,4.9712,-0.8816,1.0891,0.1239,2340.0,2340.0,-0.612,-1.8152,4.1373,-71.5655
2019-06-03 15:39:53.080,141.7908,6987.0249,4.9758,-0.9063,0.9619,0.025,2340.0,2340.0,-0.6032,-1.8092,4.1425,-71.5655
2019-06-03 15:39:53.100,141.7991,6986.916,4.983,-0.9325,0.9585,0.0504,2340.0,2340.0,-0.612,-1.8122,4.1425,-71.5638
2019-06-03 15:39:53.120,141.7824,6986.9976,4.983,-0.9325,1.1024,0.085,2340.0,2340.0,-0.612,-1.8122,4.1373,-71.5638
2019-06-03 15:39:53.140,141.7069,6987.0249,4.983,-0.9325,0.9238,0.0648,2340.0,2340.0,-0.6149,-1.8092,4.1412,-71.5638
2019-06-03 15:39:53.160,141.7237,6987.0791,4.9933,-0.9552,1.1668,0.0576,2340.0,2340.0,-0.6237,-1.8122,4.1425,-71.562
2019-06-03 15:39:53.180,141.665,6987.0791,4.9933,-0.9552,0.9741,0.0546,2340.0,2340.0,-0.612,-1.8122,4.1439,-71.562
2019-06-03 15:39:53.200,141.665,6987.0791,5.0047,-0.9958,0.9511,0.094,2340.0,2340.0,-0.6178,-1.8122,4.1412,-71.5498
2019-06-03 15:39:53.220,141.665,6987.0522,5.0084,-1.0092,1.0721,0.029,2340.0,2340.0,-0.6149,-1.8152,4.1359,-71.5498
2019-06-03 15:39:53.240,141.7069,6987.0522,5.0084,-1.0092,1.0702,0.1051,2340.0,2340.0,-0.5974,-1.8092,4.128,-71.5498
2019-06-03 15:39:53.260,141.7153,6987.0522,5.0084,-1.0092,1.1679,0.0538,2340.0,2340.0,-0.6003,-1.8152,4.1492,-71.5498
2019-06-03 15:39:53.280,141.6566,6987.0522,5.0161,-1.0378,0.9027,0.0865,2340.0,2340.0,-0.5944,-1.8092,4.1452,-71.5515
2019-06-03 15:39:53.300,141.6566,6986.9702,5.0261,-1.0577,1.0266,0.1174,2340.0,2340.0,-0.5974,-1.8122,4.1452,-71.5498
2019-06-03 15:39:53.320,141.6482,6987.0249,5.0261,-1.0577,1.0159,0.0118,2340.0,2340.0,-0.6208,-1.8092,4.1333,-71.5498
2019-06-03 15:39:53.340,141.7237,6987.0249,5.0261,-1.0577,1.0939,0.1489,2340.0,2340.0,-0.6149,-1.8122,4.1373,-71.5498
2019-06-03 15:39:53.360,141.7069,6987.0522,5.0349,-1.0776,1.1046,0.0131,2340.0,2340.0,-0.6266,-1.8152,4.1425,-71.5498
2019-06-03 15:39:53.380,141.6566,6987.0791,5.0349,-1.0776,0.9804,0.1146,2340.0,2340.0,-0.6032,-1.8062,4.1531,-71.5498
2019-06-03 15:39:53.400,141.665,6987.1338,5.0443,-1.111,1.1276,0.1176,2400.0,2400.0,-0.6149,-1.8062,4.1425,-71.5445
2019-06-03 15:39:53.420,141.665,6987.1064,5.0457,-1.124,1.0018,-0.012,2400.0,2400.0,-0.6032,-1.8122,4.1346,-71.5428
2019-06-03 15:39:53.440,141.7069,6987.1064,5.0457,-1.124,1.1242,0.1591,2400.0,2400.0,-0.574,-1.8122,4.1386,-71.5428
2019-06-03 15:39:53.460,141.7153,6987.1064,5.0457,-1.124,0.892,0.0278,2400.0,2400.0,-0.5798,-1.8152,4.1465,-71.5428
2019-06-03 15:39:53.480,141.6482,6987.0791,5.0544,-1.1423,1.0747,0.1134,2400.0,2400.0,-0.5798,-1.8062,4.1399,-71.541
2019-06-03 15:39:53.500,141.665,6987.0249,5.0605,-1.1615,1.1409,0.1204,2400.0,2400.0,-0.5886,-1.8092,4.1412,-71.5375
2019-06-03 15:39:53.520,141.6566,6986.9976,5.0605,-1.1615,0.9341,0.0281,2400.0,2400.0,-0.5944,-1.8212,4.1399,-71.5375
2019-06-03 15:39:53.540,141.7069,6987.0522,5.0605,-1.1615,1.1734,0.1226,2400.0,2400.0,-0.5857,-1.7943,4.1373,-71.5375
2019-06-03 15:39:53.560,141.7069,6987.0791,5.0662,-1.1862,0.8535,0.0588,2400.0,2400.0,-0.5915,-1.8032,4.1412,-71.534
2019-06-03 15:39:53.580,141.6566,6987.1064,5.0662,-1.1862,1.1538,0.0929,2400.0,2400.0,-0.5798,-1.8032,4.1518,-71.534
2019-06-03 15:39:53.600,141.6398,6987.1338,5.0768,-1.2208,1.1926,0.0565,2400.0,2400.0,-0.5944,-1.8092,4.1386,-71.5201
2019-06-03 15:39:53.620,141.665,6987.1338,5.0804,-1.236,0.8794,0.0981,2400.0,2400.0,-0.5915,-1.8092,4.1373,-71.5201
2019-06-03 15:39:53.640,141.7069,6987.1064,5.0804,-1.236,1.176,0.0659,2400.0,2400.0,-0.5886,-1.8062,4.1306,-71.5201
2019-06-03 15:39:53.660,141.7069,6987.1064,5.0804,-1.236,0.9097,0.107,2400.0,2400.0,-0.5798,-1.8182,4.1558,-71.5201
2019-06-03 15:39:53.680,141.665,6987.1064,5.0886,-1.2525,1.1279,0.0403,2400.0,2400.0,-0.5886,-1.8032,4.1346,-71.5148
2019-06-03 15:39:53.700,141.6566,6987.0522,5.0935,-1.2739,1.1257,0.0437,2400.0,2400.0,-0.5769,-1.8032,4.1452,-71.5113
2019-06-03 15:39:53.720,141.6482,6987.0522,5.0935,-1.2739,0.95,0.1046,2400.0,2400.0,-0.5915,-1.8182,4.1359,-71.5113
2019-06-03 15:39:53.740,141.5894,6987.1338,5.0935,-1.2739,1.2762,0.0355,2400.0,2400.0,-0.5769,-1.8122,4.1425,-71.5113
2019-06-03 15:39:53.760,141.5726,6987.1885,5.0958,-1.2934,0.9108,0.1321,2400.0,2400.0,-0.5886,-1.8182,4.1399,-71.5061
2019-06-03 15:39:53.780,141.5221,6987.188,5.0958,-1.2934,1.1605,0.0134,2400.0,2400.0,-0.5828,-1.8032,4.1412,-71.5061
2019-06-03 15:39:53.800,141.5221,6987.2153,5.107,-1.324,1.1035,-0.0064,2400.0,2400.0,-0.6003,-1.8062,4.1359,-71.4903
2019-06-03 15:39:53.820,141.5221,6987.2427,5.1121,-1.3323,0.9719,0.1372,2400.0,2400.0,-0.5944,-1.8241,4.1386,-71.4868
2019-06-03 15:39:53.840,141.581,6987.27,5.1121,-1.3323,1.21,0.0006,2400.0,2400.0,-0.5828,-1.8152,4.1478,-71.4868
2019-06-03 15:39:53.860,141.581,6987.2427,5.1121,-1.3323,0.9622,0.1616,2400.0,2400.0,-0.5828,-1.8122,4.1492,-71.4868
2019-06-03 15:39:53.880,141.5221,6987.2153,5.1178,-1.3513,1.1161,0.0065,2400.0,2400.0,-0.5798,-1.8092,4.1306,-71.4798
2019-06-03 15:39:53.900,141.5305,6987.0791,5.1175,-1.3695,1.0602,0.0125,2400.0,2400.0,-0.5798,-1.8122,4.1425,-71.4728
2019-06-03 15:39:53.920,141.5137,6987.1064,5.1175,-1.3695,1.0281,0.1302,2400.0,2400.0,-0.5857,-1.8182,4.1373,-71.4728
2019-06-03 15:39:53.940,141.5726,6987.1338,5.1175,-1.3695,1.0022,-0.0058,2400.0,2400.0,-0.5828,-1.8122,4.1425,-71.4728
2019-06-03 15:39:53.960,141.5726,6987.1338,5.1225,-1.3878,1.0673,0.1855,2400.0,2400.0,-0.5857,-1.8152,4.1439,-71.4676
2019-06-03 15:39:53.980,141.5221,6987.1338,5.1225,-1.3878,0.9593,-0.0101,2400.0,2400.0,-0.5857,-1.8122,4.132,-71.4676
2019-06-03 15:39:54.000,141.5221,6987.1338,5.1306,-1.41,0.9667,-0.0131,2400.0,2400.0,-0.5828,-1.8092,4.1373,-71.4326
2019-06-03 15:39:54.020,141.5473,6987.1338,5.1377,-1.4146,1.0595,0.1613,2400.0,2400.0,-0.5857,-1.8152,4.1439,-71.4291
2019-06-03 15:39:54.040,141.581,6987.1338,5.1377,-1.4146,1.098,0.0071,2400.0,2400.0,-0.5886,-1.8062,4.1439,-71.4291
2019-06-03 15:39:54.060,141.581,6987.1338,5.1377,-1.4146,1.149,0.1547,2400.0,2400.0,-0.6032,-1.8122,4.1439,-71.4291
2019-06-03 15:39:54.080,141.5305,6987.1064,5.1404,-1.4304,0.7718,0.0207,2400.0,2400.0,-0.6149,-1.8092,4.1373,-71.4274
2019-06-03 15:39:54.100,141.5305,6987.0522,5.1442,-1.4442,0.9297,0.0481,2400.0,2400.0,-0.6178,-1.8092,4.1425,-71.4256
2019-06-03 15:39:54.120,141.5221,6987.0522,5.1442,-1.4442,1.132,0.0893,2400.0,2400.0,-0.6266,-1.8241,4.1452,-71.4256
2019-06-03 15:39:54.140,141.4379,6987.1338,5.1442,-1.4442,0.8724,0.0704,2400.0,2400.0,-0.6295,-1.8152,4.1492,-71.4256
2019-06-03 15:39:54.160,141.4379,6987.1611,5.15,-1.4537,1.1342,0.0941,2400.0,2400.0,-0.6266,-1.8122,4.1412,-71.4239
2019-06-03 15:39:54.180,141.3958,6987.1064,5.15,-1.4537,0.8753,0.0912,2400.0,2400.0,-0.6208,-1.8092,4.1399,-71.4239
2019-06-03 15:39:54.200,141.3958,6987.1064,5.1575,-1.4729,0.8742,0.1053,2400.0,2400.0,-0.6178,-1.8092,4.1293,-71.4274
2019-06-03 15:39:54.220,141.3958,6987.0522,5.159,-1.4809,1.2026,0.0451,2400.0,2400.0,-0.6178,-1.8182,4.1452,-71.4291
2019-06-03 15:39:54.240,141.4463,6987.0791,5.159,-1.4809,0.9944,0.0957,2400.0,2400.0,-0.6208,-1.8003,4.1425,-71.4291
2019-06-03 15:39:54.260,141.4548,6987.1064,5.159,-1.4809,1.1442,0.0392,2400.0,2400.0,-0.6149,-1.842,4.1452,-71.4291
2019-06-03 15:39:54.280,141.3873,6987.1338,5.1621,-1.4955,0.9641,0.1315,2400.0,2400.0,-0.6178,-1.8032,4.132,-71.4309
2019-06-03 15:39:54.300,141.3958,6987.1338,5.169,-1.5046,0.9948,0.1665,2400.0,2400.0,-0.6091,-1.7913,4.1412,-71.4344
2019-06-03 15:39:54.320,141.3873,6987.9507,5.169,-1.5046,1.0358,-0.0027,2400.0,2400.0,-0.6237,-1.8032,4.1505,-71.4344
2019-06-03 15:39:54.340,141.4379,6989.1489,5.169,-1.5046,0.9611,0.1326,2400.0,2400.0,-0.6237,-1.7973,4.1452,-71.4344
2019-06-03 15:39:54.360,141.4379,6989.9663,5.1729,-1.5176,1.132,-0.0001,2400.0,2400.0,-0.6266,-1.8301,4.1412,-71.4414
2019-06-03 15:39:54.380,141.3958,6991.2461,5.1749,-1.5337,1.0872,0.1307,2400.0,2400.0,-0.6295,-1.8062,4.12,-71.4501
2019-06-03 15:39:54.400,141.3873,6992.0356,5.1793,-1.5382,1.0861,0.1442,2400.0,2400.0,-0.6178,-1.8062,4.1452,-71.4536
2019-06-03 15:39:54.420,141.3958,6992.771,5.178,-1.5504,0.9345,0.0126,2400.0,2400.0,-0.6266,-1.8301,4.1425,-71.4571
2019-06-03 15:39:54.440,141.4463,6993.9424,5.178,-1.5504,0.9955,0.0921,2400.0,2400.0,-0.612,-1.7883,4.1558,-71.4571
2019-06-03 15:39:54.460,141.4463,6994.6777,5.178,-1.5504,0.8757,0.0305,2400.0,2400.0,-0.6266,-1.8062,4.1386,-71.4571
2019-06-03 15:39:54.480,141.3789,6994.9771,5.1832,-1.5607,1.1405,0.0987,2400.0,2400.0,-0.6178,-1.8241,4.132,-71.4659
2019-06-03 15:39:54.500,141.3958,6994.9497,5.1892,-1.5767,1.186,0.12,2400.0,2400.0,-0.6003,-1.8152,4.1346,-71.4746
2019-06-03 15:39:54.520,141.3873,6994.9497,5.1892,-1.5767,0.9696,0.0568,2400.0,2400.0,-0.6003,-1.8241,4.1425,-71.4746
2019-06-03 15:39:54.540,141.4379,6995.0044,5.1892,-1.5767,1.1301,0.0915,2400.0,2400.0,-0.5915,-1.8122,4.1439,-71.4746
2019-06-03 15:39:54.560,141.4379,6995.0859,5.1907,-1.5978,0.8598,0.0385,2400.0,2400.0,-0.6032,-1.8212,4.1518,-71.4868
2019-06-03 15:39:54.580,141.3873,6995.1406,5.1907,-1.5978,1.1424,0.0783,2400.0,2400.0,-0.6441,-1.8271,4.1306,-71.4868
2019-06-03 15:39:54.600,141.3958,6995.1133,5.1994,-1.6205,1.2056,0.0827,2400.0,2400.0,-0.6324,-1.8062,4.1425,-71.4973
2019-06-03 15:39:54.620,141.3873,6995.1133,5.2021,-1.6299,0.8454,0.0986,2400.0,2400.0,-0.6354,-1.8032,4.1492,-71.5043
2019-06-03 15:39:54.640,141.4295,6995.1133,5.2021,-1.6299,1.1068,0.0436,2400.0,2400.0,-0.6295,-1.8032,4.1346,-71.5043
2019-06-03 15:39:54.660,141.4548,6995.0586,5.2021,-1.6299,0.906,0.0799,2400.0,2400.0,-0.612,-1.8032,4.1505,-71.5043
2019-06-03 15:39:54.680,141.3873,6995.1133,5.2064,-1.6483,1.149,0.0424,2400.0,2400.0,-0.6178,-1.8241,4.1333,-71.5201
2019-06-03 15:39:54.700,141.4042,6995.0044,5.208,-1.6665,1.2973,0.0058,2400.0,2400.0,-0.5944,-1.8152,4.1412,-71.534
2019-06-03 15:39:54.720,141.3873,6994.9771,5.208,-1.6665,0.9131,0.1457,2400.0,2400.0,-0.612,-1.8212,4.1492,-71.534
2019-06-03 15:39:54.740,141.4379,6994.9771,5.208,-1.6665,1.1734,0.0169,2400.0,2400.0,-0.6208,-1.8152,4.1359,-71.534
2019-06-03 15:39:54.760,141.4379,6995.0044,5.2098,-1.6863,1.0003,0.1231,2400.0,2400.0,-0.6266,-1.8152,4.1465,-71.5498
2019-06-03 15:39:54.780,141.3958,6995.0586,5.2098,-1.6863,1.0532,0.0081,2400.0,2400.0,-0.6266,-1.8122,4.1359,-71.5498
2019-06-03 15:39:54.800,141.3789,6995.0859,5.2179,-1.7152,1.0895,-0.0084,2400.0,2400.0,-0.612,-1.8032,4.1425,-71.5725
2019-06-03 15:39:54.820,141.3873,6995.0859,5.2248,-1.7228,1.0118,0.1865,2400.0,2400.0,-0.6149,-1.8271,4.1452,-71.5813
2019-06-03 15:39:54.840,141.4379,6995.0859,5.2248,-1.7228,1.0602,-0.0034,2400.0,2400.0,-0.6149,-1.8152,4.1373,-71.5813
2019-06-03 15:39:54.860,141.4632,6994.9771,5.2248,-1.7228,1.0939,0.1499,2400.0,2400.0,-0.6149,-1.8122,4.1386,-71.5813
2019-06-03 15:39:54.880,141.3873,6994.9771,5.2256,-1.7451,0.9005,0.0335,2400.0,2400.0,-0.6208,-1.8122,4.128,-71.5987
2019-06-03 15:39:54.900,141.4042,6994.9229,5.2264,-1.7658,0.9149,-0.0039,2400.0,2400.0,-0.6091,-1.8122,4.1333,-71.6162
2019-06-03 15:39:54.920,141.3789,6994.9229,5.2264,-1.7658,1.1054,0.1686,2400.0,2400.0,-0.612,-1.8152,4.1465,-71.6162
2019-06-03 15:39:54.940,141.3199,6994.8955,5.2264,-1.7658,0.8428,0.0076,2400.0,2400.0,-0.6295,-1.8182,4.1425,-71.6162
2019-06-03 15:39:54.960,141.3114,6994.9229,5.2341,-1.7844,1.2507,0.1137,2400.0,2400.0,-0.6266,-1.8152,4.1465,-71.632
2019-06-03 15:39:54.980,141.2607,6994.9229,5.2341,-1.7844,0.9023,0.0587,2400.0,2400.0,-0.6324,-1.8122,4.1346,-71.632
2019-06-03 15:39:55.000,141.2607,6994.9497,5.2406,-1.8174,0.869,0.0357,2400.0,2400.0,-0.6237,-1.8122,4.1346,-71.6267
2019-06-03 15:39:55.020,141.2607,6994.9497,5.2465,-1.828,1.2074,0.0919,2400.0,2400.0,-0.6149,-1.8152,4.1373,-71.6355
2019-06-03 15:39:55.040,141.3114,6995.0044,5.2465,-1.828,0.8095,0.0574,2400.0,2400.0,-0.6061,-1.8152,4.1373,-71.6355
2019-06-03 15:39:55.060,141.3199,6995.0044,5.2465,-1.828,1.233,0.0614,2400.0,2400.0,-0.6032,-1.8092,4.1412,-71.6355
2019-06-03 15:39:55.080,141.2607,6995.0044,5.2493,-1.8483,0.8443,0.1058,2400.0,2400.0,-0.6237,-1.8152,4.1333,-71.6512
2019-06-03 15:39:55.100,141.2692,6994.9771,5.2558,-1.8726,0.8838,0.1015,2400.0,2400.0,-0.6178,-1.7734,4.1359,-71.6669
2019-06-03 15:39:55.120,141.2607,6994.9497,5.2558,-1.8726,1.22,0.0323,2400.0,2400.0,-0.612,-1.8212,4.1531,-71.6669
2019-06-03 15:39:55.140,141.1762,6994.9497,5.2558,-1.8726,0.8065,0.1286,2400.0,2400.0,-0.6061,-1.8241,4.1425,-71.6669
2019-06-03 15:39:55.160,141.1762,6994.9771,5.265,-1.8981,1.1191,0.0025,2400.0,2400.0,-0.5974,-1.8182,4.1333,-71.6827
2019-06-03 15:39:55.180,141.1339,6995.0044,5.265,-1.8981,0.9815,0.1414,2400.0,2400.0,-0.6003,-1.8152,4.1373,-71.6827
2019-06-03 15:39:55.200,141.1254,6995.0586,5.2698,-1.9413,0.9597,0.135,2400.0,2400.0,-0.6061,-1.8152,4.1373,-71.6897
2019-06-03 15:39:55.220,141.1339,6995.0317,5.2703,-1.9585,1.1139,-0.0018,2400.0,2400.0,-0.6149,-1.8152,4.1518,-71.6967
2019-06-03 15:39:55.240,141.1931,6995.0317,5.2703,-1.9585,1.0011,0.1648,2400.0,2400.0,-0.6295,-1.8122,4.1386,-71.6967
2019-06-03 15:39:55.260,141.1846,6995.0044,5.2703,-1.9585,1.0188,-0.0129,2400.0,2400.0,-0.6237,-1.7973,4.1373,-71.6967
2019-06-03 15:39:55.280,141.1254,6994.9771,5.2767,-1.9893,1.0369,0.1727,2400.0,2400.0,-0.6178,-1.8032,4.132,-71.7141
2019-06-03 15:39:55.300,141.1339,6994.9229,5.2823,-2.0196,1.024,0.1326,2400.0,2400.0,-0.5974,-1.8032,4.1399,-71.7299
2019-06-03 15:39:55.320,141.1169,6994.9497,5.2823,-2.0196,0.899,0.0049,2400.0,2400.0,-0.5886,-1.7973,4.1439,-71.7299
2019-06-03 15:39:55.340,141.0406,6994.9229,5.2823,-2.0196,1.1253,0.1439,2400.0,2400.0,-0.5857,-1.8122,4.132,-71.7299
2019-06-03 15:39:55.360,141.0576,6994.9771,5.2872,-2.0521,0.9327,0.0372,2400.0,2400.0,-0.5857,-1.8122,4.1359,-71.7474
2019-06-03 15:39:55.380,140.9898,6995.0044,5.2872,-2.0521,1.0906,0.1348,2400.0,2400.0,-0.5974,-1.8122,4.1346,-71.7474
2019-06-03 15:39:55.400,141.0067,6994.9771,5.295,-2.0975,1.1742,0.0964,2340.0,2340.0,-0.5915,-1.8092,4.1465,-71.7649
2019-06-03 15:39:55.420,141.0067,6994.9229,5.2962,-2.1148,0.8713,0.0311,2340.0,2340.0,-0.5944,-1.8152,4.1452,-71.7718
2019-06-03 15:39:55.440,141.0491,6995.0044,5.2962,-2.1148,1.1819,0.1069,2340.0,2340.0,-0.6149,-1.8092,4.1293,-71.7718
2019-06-03 15:39:55.460,141.0576,6994.9771,5.2962,-2.1148,0.8716,0.0616,2340.0,2340.0,-0.6003,-1.8062,4.1452,-71.7718
2019-06-03 15:39:55.480,140.9898,6995.0044,5.3036,-2.1427,1.0717,0.0564,2340.0,2340.0,-0.6003,-1.8241,4.1399,-71.7876
2019-06-03 15:39:55.500,140.9982,6994.9771,5.3057,-2.1787,1.1102,0.0244,2340.0,2340.0,-0.5886,-1.7823,4.1333,-71.8051
2019-06-03 15:39:55.520,140.9898,6995.0317,5.3057,-2.1787,0.7929,0.1178,2340.0,2340.0,-0.5886,-1.8152,4.1412,-71.8051
2019-06-03 15:39:55.540,140.9218,6994.9497,5.3057,-2.1787,1.1594,0.0113,2340.0,2340.0,-0.5828,-1.8301,4.1267,-71.8051
2019-06-03 15:39:55.560,140.9218,6994.9771,5.31,-2.2122,0.909,0.1482,2340.0,2340.0,-0.5857,-1.7883,4.1439,-71.8208
2019-06-03 15:39:55.580,140.8623,6995.0586,5.31,-2.2122,1.1224,0.0114,2340.0,2340.0,-0.5915,-1.8122,4.1412,-71.8208
2019-06-03 15:39:55.600,140.8538,6995.0859,5.3171,-2.2597,1.2178,-0.0085,2340.0,2340.0,-0.5798,-1.8062,4.1399,-71.8435
2019-06-03 15:39:55.620,140.8538,6995.0586,5.3224,-2.2749,0.9027,0.1316,2340.0,2340.0,-0.5886,-1.8062,4.1373,-71.8523
2019-06-03 15:39:55.640,140.9218,6995.0586,5.3224,-2.2749,1.0728,-0.0064,2340.0,2340.0,-0.5798,-1.8032,4.1253,-71.8523
2019-06-03 15:39:55.660,140.9218,6994.9771,5.3224,-2.2749,1.0233,0.1663,2340.0,2340.0,-0.574,-1.8032,4.1412,-71.8523
2019-06-03 15:39:55.680,140.8623,6994.8682,5.3269,-2.3085,1.0728,-0.0072,2340.0,2340.0,-0.5711,-1.8062,4.1452,-71.8698
2019-06-03 15:39:55.700,140.8793,6994.8135,5.3269,-2.3443,0.9671,0.0058,2340.0,2340.0,-0.5798,-1.8122,4.1346,-71.8873
2019-06-03 15:39:55.720,140.8538,6994.7866,5.3269,-2.3443,1.2078,0.1406,2340.0,2340.0,-0.574,-1.8092,4.1452,-71.8873
2019-06-03 15:39:55.740,140.7857,6994.8408,5.3269,-2.3443,0.8912,0.0224,2340.0,2340.0,-0.6178,-1.8122,4.1227,-71.8873
2019-06-03 15:39:55.760,140.7857,6994.9229,5.333,-2.3755,1.1253,0.1545,2340.0,2340.0,-0.5886,-1.8062,4.1492,-71.9047
2019-06-03 15:39:55.780,140.7261,6994.9497,5.333,-2.3755,0.8576,0.0261,2340.0,2340.0,-0.6032,-1.8092,4.1452,-71.9047
2019-06-03 15:39:55.800,140.7346,6994.9229,5.3378,-2.4241,0.8291,0.0229,2340.0,2340.0,-0.5944,-1.8032,4.1293,-71.9222
2019-06-03 15:39:55.820,140.7431,6994.8955,5.3447,-2.4369,1.2263,0.0982,2340.0,2340.0,-0.5857,-1.8092,4.1346,-71.931
2019-06-03 15:39:55.840,140.7857,6994.8682,5.3447,-2.4369,0.7991,0.0912,2340.0,2340.0,-0.5564,-1.8122,4.132,-71.931
2019-06-03 15:39:55.860,140.7943,6994.8408,5.3447,-2.4369,1.3069,0.046,2340.0,2340.0,-0.5272,-1.8062,4.1425,-71.931
2019-06-03 15:39:55.880,140.7346,6994.8955,5.3441,-2.4699,0.7884,0.1417,2340.0,2340.0,-0.5301,-1.8122,4.1386,-71.9467
2019-06-03 15:39:55.900,140.7261,6994.9497,5.3508,-2.5001,0.7577,0.1121,2340.0,2340.0,-0.5331,-1.8062,4.1253,-71.9624
2019-06-03 15:39:55.920,140.7261,6995.8486,5.3508,-2.5001,1.264,-0.01,2340.0,2340.0,-0.536,-1.8092,4.1333,-71.9624
2019-06-03 15:39:55.940,140.6494,6997.2109,5.3508,-2.5001,0.8428,0.1594,2340.0,2340.0,-0.5184,-1.8092,4.1399,-71.9624
2019-06-03 15:39:55.960,140.6579,6998.0278,5.36,-2.5278,1.2478,-0.0244,2340.0,2340.0,-0.4775,-1.8062,4.1386,-71.9782
2019-06-03 15:39:55.980,140.6067,6999.417,5.36,-2.5278,0.8598,0.1853,2340.0,2340.0,-0.4775,-1.8092,4.1425,-71.9782
2019-06-03 15:39:56.000,140.5896,7000.3433,5.3675,-2.5715,0.9412,0.1458,2340.0,2340.0,-0.4951,-1.8092,4.1187,-71.9764
2019-06-03 15:39:56.020,140.5981,7001.2695,5.3649,-2.585,1.0854,-0.0317,2340.0,2340.0,-0.4775,-1.8062,4.1373,-71.9834
2019-06-03 15:39:56.040,140.6494,7002.6313,5.3649,-2.585,0.9667,0.1763,2340.0,2340.0,-0.4571,-1.8062,4.1293,-71.9834
2019-06-03 15:39:56.060,140.6579,7003.4761,5.3649,-2.585,1.0203,-0.032,2340.0,2340.0,-0.3811,-1.7794,4.1492,-71.9834
2019-06-03 15:39:56.080,140.5981,7003.7754,5.3702,-2.6079,1.1235,0.2094,2340.0,2340.0,-0.3928,-1.8241,4.132,-71.9974
2019-06-03 15:39:56.100,140.6152,7003.6123,5.3779,-2.6277,1.2526,0.189,2340.0,2340.0,-0.3898,-1.8062,4.1359,-72.0079
2019-06-03 15:39:56.120,140.5896,7003.5576,5.3779,-2.6277,0.831,0.0207,2340.0,2340.0,-0.4308,-1.8032,4.1293,-72.0079
2019-06-03 15:39:56.140,140.6494,7003.6123,5.3779,-2.6277,1.2833,0.1173,2340.0,2340.0,-0.4512,-1.8062,4.1399,-72.0079
2019-06-03 15:39:56.160,140.6408,7003.6938,5.3775,-2.6504,0.8502,0.0284,2340.0,2340.0,-0.4804,-1.7943,4.1399,-72.0201
2019-06-03 15:39:56.180,140.5896,7003.7485,5.3775,-2.6504,1.3587,0.0902,2340.0,2340.0,-0.5769,-1.8092,4.1452,-72.0201
2019-06-03 15:39:56.200,140.5896,7003.7754,5.3799,-2.6811,1.2955,0.0702,2340.0,2340.0,-0.6646,-1.8032,4.1267,-72.0289
2019-06-03 15:39:56.220,140.6152,7003.7485,5.3787,-2.692,0.6893,0.1156,2340.0,2340.0,-0.7201,-1.7973,4.1478,-72.0306
2019-06-03 15:39:56.240,140.6494,7003.7212,5.3787,-2.692,1.3546,0.0516,2340.0,2340.0,-0.7844,-1.8152,4.1465,-72.0306
2019-06-03 15:39:56.260,140.6579,7003.7212,5.3787,-2.692,0.7241,0.0896,2340.0,2340.0,-0.8517,-1.8092,4.1465,-72.0306
2019-06-03 15:39:56.280,140.5981,7003.6938,5.3799,-2.7119,1.2459,0.0149,2340.0,2340.0,-0.9364,-1.8182,4.1465,-72.0376
2019-06-03 15:39:56.300,140.5981,7003.6392,5.3771,-2.7317,1.1283,0.0075,2340.0,2340.0,-1.0563,-1.8182,4.1373,-72.0446
2019-06-03 15:39:56.320,140.5896,7003.6392,5.3771,-2.7317,0.8494,0.1493,2340.0,2340.0,-1.1586,-1.8152,4.1465,-72.0446
2019-06-03 15:39:56.340,140.5212,7003.6123,5.3771,-2.7317,1.1394,-0.0225,2340.0,2340.0,-1.2901,-1.8212,4.1425,-72.0446
2019-06-03 15:39:56.360,140.5127,7003.6123,5.372,-2.7537,0.9523,0.1583,2340.0,2340.0,-1.3573,-1.7973,4.1518,-72.0534
2019-06-03 15:39:56.380,140.4613,7003.6123,5.372,-2.7537,0.9952,-0.0506,2340.0,2340.0,-1.4713,-1.8182,4.1425,-72.0534
2019-06-03 15:39:56.400,140.4699,7003.5576,5.3703,-2.7761,0.8909,-0.0424,2400.0,2400.0,-1.521,-1.8212,4.1386,-72.0778
2019-06-03 15:39:56.420,140.4613,7003.5576,5.3748,-2.7798,1.1712,0.2034,2400.0,2400.0,-1.5473,-1.8122,4.1425,-72.0848
2019-06-03 15:39:56.440,140.5212,7003.6938,5.3748,-2.7798,0.8779,-0.0281,2400.0,2400.0,-1.5649,-1.8152,4.1478,-72.0848
2019-06-03 15:39:56.460,140.5127,7003.6938,5.3748,-2.7798,1.1091,0.1633,2400.0,2400.0,-1.562,-1.8122,4.1452,-72.0848
2019-06-03 15:39:56.480,140.4613,7003.6665,5.3679,-2.7982,0.7733,-0.0079,2400.0,2400.0,-1.5649,-1.8122,4.1492,-72.1023
2019-06-03 15:39:56.500,140.4699,7003.585,5.3634,-2.8153,0.8047,0.0415,2400.0,2400.0,-1.5649,-1.8122,4.1306,-72.1233
2019-06-03 15:39:56.520,140.4613,7003.585,5.3634,-2.8153,1.274,0.1172,2400.0,2400.0,-1.521,-1.8152,4.1465,-72.1233
2019-06-03 15:39:56.540,140.5212,7003.6392,5.3634,-2.8153,0.7562,0.0778,2400.0,2400.0,-1.5064,-1.8122,4.1478,-72.1233
2019-06-03 15:39:56.560,140.5127,7003.6665,5.3647,-2.8218,1.2847,0.0674,2400.0,2400.0,-1.4597,-1.8092,4.1412,-72.146
2019-06-03 15:39:56.580,140.4613,7003.6938,5.3647,-2.8218,0.7259,0.0914,2400.0,2400.0,-1.4217,-1.8152,4.1373,-72.146
2019-06-03 15:39:56.600,140.4528,7003.6665,5.3608,-2.8415,0.8043,0.117,2400.0,2400.0,-1.3281,-1.8152,4.1386,-72.1827
2019-06-03 15:39:56.620,140.4699,7003.6392,5.3614,-2.8443,1.2688,0.0238,2400.0,2400.0,-1.1469,-1.8152,4.1478,-72.1985
2019-06-03 15:39:56.640,140.5041,7003.6665,5.3614,-2.8443,0.7592,0.1524,2400.0,2400.0,-0.9394,-1.8182,4.1452,-72.1985
2019-06-03 15:39:56.660,140.5212,7003.6392,5.3614,-2.8443,1.2844,0.0076,2400.0,2400.0,-0.6792,-1.8092,4.132,-72.1985
2019-06-03 15:39:56.680,140.4613,7003.6665,5.3577,-2.8564,0.858,0.124,2400.0,2400.0,-0.4161,-1.8003,4.132,-72.2317
2019-06-03 15:39:56.700,140.4613,7003.585,5.3628,-2.8646,0.9216,0.1639,2400.0,2400.0,-0.1911,-1.8032,4.128,-72.2684
2019-06-03 15:39:56.720,140.4528,7003.6392,5.3628,-2.8646,1.1749,-0.0272,2400.0,2400.0,0.1071,-1.8032,4.1386,-72.2684
2019-06-03 15:39:56.740,140.5127,7003.8027,5.3628,-2.8646,0.9933,0.1965,2400.0,2400.0,0.2854,-1.8003,4.1306,-72.2684
2019-06-03 15:39:56.760,140.5041,7003.8574,5.3662,-2.8791,1.0743,-0.0087,2400.0,2400.0,0.4345,-1.7943,4.124,-72.3017
2019-06-03 15:39:56.780,140.4613,7003.8574,5.3662,-2.8791,1.1172,0.1557,2400.0,2400.0,0.4549,-1.7913,4.124,-72.3017
2019-06-03 15:39:56.800,140.4613,7003.9116,5.3693,-2.9092,1.0088,0.1736,2400.0,2400.0,0.4578,-1.8182,4.1333,-72.3524
2019-06-03 15:39:56.820,140.4613,7003.9116,5.367,-2.9217,1.0628,-0.0421,2400.0,2400.0,0.414,-1.8092,4.132,-72.3646
2019-06-03 15:39:56.840,140.5127,7003.9663,5.367,-2.9217,1.2318,0.1969,2400.0,2400.0,0.3321,-1.8092,4.1333,-72.3646
2019-06-03 15:39:56.860,140.5127,7003.9937,5.367,-2.9217,0.7784,-0.0282,2400.0,2400.0,0.2152,-1.8122,4.1267,-72.3646
2019-06-03 15:39:56.880,140.4528,7004.0205,5.3758,-2.9435,1.2866,0.1637,2400.0,2400.0,0.0837,-1.8032,4.1359,-72.3856
2019-06-03 15:39:56.900,140.487,7003.939,5.381,-2.9663,1.1912,0.1221,2400.0,2400.0,-0.0215,-1.8062,4.1386,-72.4013
2019-06-03 15:39:56.920,140.4528,7003.8027,5.381,-2.9663,0.7973,0.0068,2400.0,2400.0,-0.156,-1.8062,4.1359,-72.4013
2019-06-03 15:39:56.940,140.5212,7003.7754,5.381,-2.9663,1.2918,0.1052,2400.0,2400.0,-0.3255,-1.8062,4.1373,-72.4013
2019-06-03 15:39:56.960,140.5127,7003.7754,5.3801,-2.9949,0.7211,0.0578,2400.0,2400.0,-0.5155,-1.8003,4.132,-72.4153
2019-06-03 15:39:56.980,140.4613,7003.7212,5.3801,-2.9949,1.2714,0.0526,2400.0,2400.0,-0.6763,-1.8032,4.1465,-72.4153
2019-06-03 15:39:57.000,140.4528,7003.7485,5.3892,-3.0279,1.166,0.0588,2400.0,2400.0,-0.8224,-1.8032,4.1412,-72.4136
2019-06-03 15:39:57.020,140.4613,7003.6665,5.3896,-3.0417,0.7189,0.1071,2400.0,2400.0,-0.9569,-1.8003,4.1425,-72.4188
2019-06-03 15:39:57.040,140.5127,7003.5576,5.3896,-3.0417,1.3247,-0.0065,2400.0,2400.0,-1.1323,-1.8032,4.1386,-72.4188
2019-06-03 15:39:57.060,140.5212,7003.5029,5.3896,-3.0417,0.8128,0.1431,2400.0,2400.0,-1.2492,-1.8003,4.1478,-72.4188
2019-06-03 15:39:57.080,140.4613,7003.5303,5.3933,-3.0642,1.179,-0.0095,2400.0,2400.0,-1.3077,-1.8003,4.1518,-72.431
2019-06-03 15:39:57.100,140.4699,7003.4761,5.3918,-3.0874,1.1242,-0.0075,2400.0,2400.0,-1.334,-1.8062,4.1373,-72.4468
2019-06-03 15:39:57.120,140.4613,7003.5303,5.3918,-3.0874,0.8983,0.1591,2400.0,2400.0,-1.2872,-1.8032,4.1399,-72.4468
2019-06-03 15:39:57.140,140.3842,7003.5576,5.3918,-3.0874,1.0525,-0.0414,2400.0,2400.0,-1.2375,-1.8032,4.1412,-72.4468
2019-06-03 15:39:57.160,140.3757,7003.6123,5.3921,-3.1068,0.9907,0.1896,2400.0,2400.0,-1.0884,-1.8032,4.1346,-72.4643
2019-06-03 15:39:57.180,140.3328,7003.6392,5.3921,-3.1068,0.9674,-0.0414,2400.0,2400.0,-0.8984,-1.8032,4.1439,-72.4643
2019-06-03 15:39:57.200,140.3242,7003.7485,5.3931,-3.1387,0.8753,-0.0399,2400.0,2400.0,-0.7523,-1.8062,4.1373,-72.4957
2019-06-03 15:39:57.220,140.3328,7003.7212,5.3975,-3.1439,1.1697,0.1549,2400.0,2400.0,-0.536,-1.8032,4.1346,-72.5062
2019-06-03 15:39:57.240,140.3671,7003.7485,5.3975,-3.1439,0.7966,-0.0186,2400.0,2400.0,-0.3372,-1.8032,4.1492,-72.5062
2019-06-03 15:39:57.260,140.3842,7003.6938,5.3975,-3.1439,1.1764,0.1707,2400.0,2400.0,-0.1794,-1.8092,4.1253,-72.5062
2019-06-03 15:39:57.280,140.3156,7003.7212,5.3949,-3.1642,0.8886,0.0458,2400.0,2400.0,-0.0245,-1.7823,4.1346,-72.5307
2019-06-03 15:39:57.300,140.3328,7003.7754,5.3945,-3.1853,0.7947,0.0409,2400.0,2400.0,0.0486,-1.8212,4.1293,-72.5534
2019-06-03 15:39:57.320,140.3156,7004.6201,5.3945,-3.1853,1.2973,0.0741,2400.0,2400.0,0.1042,-1.7973,4.1267,-72.5534
2019-06-03 15:39:57.340,140.3757,7005.8735,5.3945,-3.1853,0.7633,0.0672,2400.0,2400.0,0.0954,-1.8003,4.1359,-72.5534
2019-06-03 15:39:57.360,140.3671,7006.7456,5.4,-3.2037,1.2781,0.0658,2400.0,2400.0,0.0574,-1.7913,4.1333,-72.5744
2019-06-03 15:39:57.380,140.3156,7008.0532,5.4,-3.2037,0.8546,0.1224,2400.0,2400.0,0.0252,-1.7734,4.1425,-72.5744
2019-06-03 15:39:57.400,140.3242,7008.9253,5.4007,-3.241,0.7263,0.151,2340.0,2340.0,-0.0566,-1.7973,4.1359,-72.6041
2019-06-03 15:39:57.420,140.3328,7009.7969,5.3979,-3.2511,1.362,-0.0059,2340.0,2340.0,-0.0917,-1.7913,4.132,-72.6129
2019-06-03 15:39:57.440,140.3842,7011.1318,5.3979,-3.2511,0.9123,0.1618,2340.0,2340.0,-0.1385,-1.7943,4.1412,-72.6129
2019-06-03 15:39:57.460,140.3757,7011.9219,5.3979,-3.2511,1.1006,0.0006,2340.0,2340.0,-0.1706,-1.8122,4.1373,-72.6129
2019-06-03 15:39:57.480,140.3156,7012.2764,5.3998,-3.278,0.9515,0.1796,2340.0,2340.0,-0.2086,-1.8032,4.1333,-72.6269
